{
  "stores": [
    {
      "store": {
        "name": "Mercadão dos Óculos de Olímpia"
      },
      "location": {
        "city": "Olímpia - SP",
        "state": "São Paulo"
      },
      "whatsapp": "https://api.whatsapp.com/send?phone=5517997014171"
    },
    {
      "store": {
        "name": "Mercadão dos Óculos de Taquaritinga"
      },
      "location": {
        "city": "Taquaritinga - SP",
        "state": "São Paulo"
      },
      "whatsapp": "https://api.whatsapp.com/send?phone=5516996139668"
    },
    {
      "store": {
        "name": "Mercadão dos Óculos de Americana"
      },
      "location": {
        "city": "Americana - SP",
        "state": "São Paulo"
      },
      "whatsapp": "https://api.whatsapp.com/send?phone=5519996817766"
    },
    {
      "store": {
        "name": "Mercadão dos Óculos de Florianópolis"
      },
      "location": {
        "city": "Florianópolis - SC",
        "state": "Santa Catarina"
      },
      "whatsapp": "https://api.whatsapp.com/send?phone=5548988243139"
    },
    {
      "store": {
        "name": "Mercadão dos Óculos de São José "
      },
      "location": {
        "city": "São José - SC",
        "state": "Santa Catarina"
      },
      "whatsapp": "https://api.whatsapp.com/send?phone=5548988243139"
    }
  ]
}
